{
  "type": "FeatureCollection",
  "features": [
    {
      "type": "Feature",
      "properties": {
        "nom_quartier": "Talence",
        "ville": "Talence",
        "adresse": "12 Rue de la Liberté",
        "prix_m2_2021": 4000,
        "prix_m2_2022": 4200,
        "prix_m2_2023": 4400,
        "pred_m2_2024": 4600,
        "prix_m2_2024": 4700
      },
      "geometry": {
        "type": "Point",
        "coordinates": [-0.5915, 44.8105]
      }
    },
    {
      "type": "Feature",
      "properties": {
        "nom_quartier": "Talence",
        "ville": "Talence",
        "adresse": "8 Avenue des Sciences",
        "prix_m2_2021": 3900,
        "prix_m2_2022": 4100,
        "prix_m2_2023": 4300,
        "pred_m2_2024": 4500,
        "prix_m2_2024": 4550
      },
      "geometry": {
        "type": "Point",
        "coordinates": [-0.5922, 44.8112]
      }
    },
    {
      "type": "Feature",
      "properties": {
        "nom_quartier": "Talence",
        "ville": "Talence",
        "adresse": "25 Rue Pasteur",
        "prix_m2_2021": 4100,
        "prix_m2_2022": 4300,
        "prix_m2_2023": 4500,
        "pred_m2_2024": 4700,
        "prix_m2_2024": 4750
      },
      "geometry": {
        "type": "Point",
        "coordinates": [-0.5930, 44.8120]
      }
    },
    {
      "type": "Feature",
      "properties": {
        "nom_quartier": "Pessac",
        "ville": "Pessac",
        "adresse": "14 Rue du Château",
        "prix_m2_2021": 3800,
        "prix_m2_2022": 4000,
        "prix_m2_2023": 4200,
        "pred_m2_2024": 4400,
        "prix_m2_2024": 4450
      },
      "geometry": {
        "type": "Point",
        "coordinates": [-0.6275, 44.8105]
      }
    },
    {
      "type": "Feature",
      "properties": {
        "nom_quartier": "Pessac",
        "ville": "Pessac",
        "adresse": "5 Avenue Jean Jaurès",
        "prix_m2_2021": 3700,
        "prix_m2_2022": 3900,
        "prix_m2_2023": 4100,
        "pred_m2_2024": 4300,
        "prix_m2_2024": 4350
      },
      "geometry": {
        "type": "Point",
        "coordinates": [-0.6280, 44.8110]
      }
    },
    {
      "type": "Feature",
      "properties": {
        "nom_quartier": "Pessac",
        "ville": "Pessac",
        "adresse": "30 Rue des Vignes",
        "prix_m2_2021": 3850,
        "prix_m2_2022": 4050,
        "prix_m2_2023": 4250,
        "pred_m2_2024": 4450,
        "prix_m2_2024": 4500
      },
      "geometry": {
        "type": "Point",
        "coordinates": [-0.6268, 44.8125]
      }
    }
  ]
}
